{
  "2025-11-07": [
    {
      "location_name": "Times Square",
      "lat": 40.758,
      "lng": -73.9855,
      "emotion": "anxiety",
      "intensity": 0.9,
      "text": "Times Square on a Thursday morning is absolute chaos. Too many tourists, can't even walk",
      "reasoning": "High stress from crowd density",
      "timestamp": "2025-11-07T08:30:00",
      "subreddit": "nyc",
      "post_id": "gen001"
    },
    {
      "location_name": "Central Park",
      "lat": 40.7829,
      "lng": -73.9654,
      "emotion": "peace",
      "intensity": 0.85,
      "text": "Morning run through Central Park. The fall colors are peak right now, feels magical",
      "reasoning": "Peaceful nature experience",
      "timestamp": "2025-11-07T07:15:00",
      "subreddit": "nyc",
      "post_id": "gen002"
    },
    {
      "location_name": "Brooklyn Bridge",
      "lat": 40.7061,
      "lng": -73.9969,
      "emotion": "joy",
      "intensity": 0.9,
      "text": "Finally proposed on Brooklyn Bridge! She said yes! NYC you're beautiful",
      "reasoning": "Major life celebration",
      "timestamp": "2025-11-07T09:45:00",
      "subreddit": "nyc",
      "post_id": "gen003"
    },
    {
      "location_name": "Lower East Side",
      "lat": 40.7177,
      "lng": -73.9860,
      "emotion": "joy",
      "intensity": 0.8,
      "text": "Best bagel of my life at Russ & Daughters. Worth the 45 min wait",
      "reasoning": "Food satisfaction",
      "timestamp": "2025-11-07T10:20:00",
      "subreddit": "nyc",
      "post_id": "gen004"
    },
    {
      "location_name": "East Village",
      "lat": 40.7265,
      "lng": -73.9815,
      "emotion": "neutral",
      "intensity": 0.5,
      "text": "A Sign Of The Times - East Village (6/29/25)",
      "reasoning": "Neutral observation",
      "timestamp": "2025-11-07T10:17:57",
      "subreddit": "nyc",
      "post_id": "1oqx48t"
    },
    {
      "location_name": "Williamsburg",
      "lat": 40.7081,
      "lng": -73.9571,
      "emotion": "joy",
      "intensity": 0.85,
      "text": "Coffee shop hopping in Williamsburg is my favorite weekend activity",
      "reasoning": "Leisure enjoyment",
      "timestamp": "2025-11-07T11:00:00",
      "subreddit": "Brooklyn",
      "post_id": "gen005"
    },
    {
      "location_name": "Brooklyn",
      "lat": 40.7061,
      "lng": -73.9969,
      "emotion": "neutral",
      "intensity": 0.5,
      "text": "Volunteer opportunities to work with homeless community?",
      "reasoning": "Seeking information",
      "timestamp": "2025-11-07T09:23:56",
      "subreddit": "AskNYC",
      "post_id": "1oqvqua"
    },
    {
      "location_name": "SoHo",
      "lat": 40.7233,
      "lng": -74.0030,
      "emotion": "anxiety",
      "intensity": 0.7,
      "text": "Shopping in SoHo on a weekend was a mistake. My wallet is crying",
      "reasoning": "Financial stress",
      "timestamp": "2025-11-07T14:30:00",
      "subreddit": "nyc",
      "post_id": "gen006"
    },
    {
      "location_name": "Greenwich Village",
      "lat": 40.7336,
      "lng": -74.0027,
      "emotion": "peace",
      "intensity": 0.8,
      "text": "Reading a book in Washington Square Park. This is the NYC I love",
      "reasoning": "Peaceful moment",
      "timestamp": "2025-11-07T13:00:00",
      "subreddit": "nyc",
      "post_id": "gen007"
    },
    {
      "location_name": "Chinatown",
      "lat": 40.7157,
      "lng": -73.9970,
      "emotion": "joy",
      "intensity": 0.9,
      "text": "Dim sum in Chinatown hits different. Jing Fong never disappoints",
      "reasoning": "Food enjoyment",
      "timestamp": "2025-11-07T12:15:00",
      "subreddit": "nyc",
      "post_id": "gen008"
    },
    {
      "location_name": "Financial District",
      "lat": 40.7074,
      "lng": -74.0113,
      "emotion": "anxiety",
      "intensity": 0.85,
      "text": "Rush hour at Fulton Street station is a special kind of hell",
      "reasoning": "Commute stress",
      "timestamp": "2025-11-07T08:45:00",
      "subreddit": "nyc",
      "post_id": "gen009"
    },
    {
      "location_name": "Upper West Side",
      "lat": 40.7870,
      "lng": -73.9754,
      "emotion": "peace",
      "intensity": 0.75,
      "text": "Walked along Riverside Park. The Hudson looks beautiful today",
      "reasoning": "Nature appreciation",
      "timestamp": "2025-11-07T16:00:00",
      "subreddit": "nyc",
      "post_id": "gen010"
    },
    {
      "location_name": "Harlem",
      "lat": 40.8116,
      "lng": -73.9465,
      "emotion": "joy",
      "intensity": 0.9,
      "text": "Jazz night at Minton's Playhouse. Harlem's music scene is unmatched",
      "reasoning": "Cultural experience",
      "timestamp": "2025-11-07T20:30:00",
      "subreddit": "nyc",
      "post_id": "gen011"
    },
    {
      "location_name": "Queens",
      "lat": 40.7282,
      "lng": -73.7949,
      "emotion": "joy",
      "intensity": 0.8,
      "text": "Found an amazing Thai place in Elmhurst. Queens is the real food capital",
      "reasoning": "Food discovery",
      "timestamp": "2025-11-07T19:00:00",
      "subreddit": "Queens",
      "post_id": "gen012"
    },
    {
      "location_name": "Astoria",
      "lat": 40.7644,
      "lng": -73.9235,
      "emotion": "peace",
      "intensity": 0.7,
      "text": "Astoria Park at sunset is underrated. Best view of the city",
      "reasoning": "Scenic appreciation",
      "timestamp": "2025-11-07T17:45:00",
      "subreddit": "Queens",
      "post_id": "gen013"
    }
  ],
  "2025-11-06": [
    {
      "location_name": "West Village",
      "lat": 40.7358,
      "lng": -74.0027,
      "emotion": "sadness",
      "intensity": 0.9,
      "text": "Wrong-way driver kills 27-year-old woman crossing West Village street",
      "reasoning": "Tragic incident",
      "timestamp": "2025-11-06T11:40:33",
      "subreddit": "nyc",
      "post_id": "1oq3uya"
    },
    {
      "location_name": "FiDi",
      "lat": 40.7074,
      "lng": -74.0113,
      "emotion": "joy",
      "intensity": 0.9,
      "text": "Lost dog reunited with owner! Faith in humanity restored",
      "reasoning": "Happy ending",
      "timestamp": "2025-11-06T09:26:24",
      "subreddit": "nyc",
      "post_id": "1oq0bmu"
    },
    {
      "location_name": "East Midtown",
      "lat": 40.7549,
      "lng": -73.984,
      "emotion": "anxiety",
      "intensity": 0.8,
      "text": "Family apartment about to get auctioned off. Don't know what to do",
      "reasoning": "Housing crisis",
      "timestamp": "2025-11-06T23:22:35",
      "subreddit": "AskNYC",
      "post_id": "1oqkura"
    },
    {
      "location_name": "Brooklyn Bridge",
      "lat": 40.7061,
      "lng": -73.9969,
      "emotion": "joy",
      "intensity": 0.8,
      "text": "I painted the brooklyn bridge in watercolor",
      "reasoning": "Creative satisfaction",
      "timestamp": "2025-11-06T07:26:48",
      "subreddit": "newyorkcity",
      "post_id": "1opxjym"
    },
    {
      "location_name": "North Williamsburg",
      "lat": 40.7081,
      "lng": -73.9571,
      "emotion": "joy",
      "intensity": 0.8,
      "text": "Looking to establish a Jewish community. Excited to make new friends!",
      "reasoning": "Social connection",
      "timestamp": "2025-11-06T15:56:30",
      "subreddit": "Brooklyn",
      "post_id": "1oqaoh6"
    },
    {
      "location_name": "Flatiron",
      "lat": 40.7411,
      "lng": -73.9897,
      "emotion": "neutral",
      "intensity": 0.5,
      "text": "The Flatiron Building Enters Its Condo Era",
      "reasoning": "News update",
      "timestamp": "2025-11-06T19:33:16",
      "subreddit": "Manhattan",
      "post_id": "1oqg1rp"
    },
    {
      "location_name": "Chelsea",
      "lat": 40.7465,
      "lng": -74.0014,
      "emotion": "joy",
      "intensity": 0.75,
      "text": "Found the best vintage shop in Chelsea. My wallet hurts but I'm happy",
      "reasoning": "Shopping satisfaction",
      "timestamp": "2025-11-06T14:00:00",
      "subreddit": "nyc",
      "post_id": "gen014"
    },
    {
      "location_name": "Union Square",
      "lat": 40.7359,
      "lng": -73.9911,
      "emotion": "anxiety",
      "intensity": 0.7,
      "text": "Farmer's market at Union Square is packed. Social anxiety kicking in",
      "reasoning": "Crowd stress",
      "timestamp": "2025-11-06T10:30:00",
      "subreddit": "nyc",
      "post_id": "gen015"
    },
    {
      "location_name": "Park Slope",
      "lat": 40.6710,
      "lng": -73.9778,
      "emotion": "peace",
      "intensity": 0.8,
      "text": "Strolling through Park Slope on a fall morning. This neighborhood is perfect",
      "reasoning": "Neighborhood appreciation",
      "timestamp": "2025-11-06T09:00:00",
      "subreddit": "Brooklyn",
      "post_id": "gen016"
    },
    {
      "location_name": "DUMBO",
      "lat": 40.7033,
      "lng": -73.9888,
      "emotion": "joy",
      "intensity": 0.85,
      "text": "Instagram photo shoot at DUMBO. The Manhattan Bridge never gets old",
      "reasoning": "Photo satisfaction",
      "timestamp": "2025-11-06T11:00:00",
      "subreddit": "Brooklyn",
      "post_id": "gen017"
    },
    {
      "location_name": "Bushwick",
      "lat": 40.6942,
      "lng": -73.9194,
      "emotion": "joy",
      "intensity": 0.8,
      "text": "Warehouse party in Bushwick was insane. Best night ever",
      "reasoning": "Nightlife enjoyment",
      "timestamp": "2025-11-06T02:30:00",
      "subreddit": "Brooklyn",
      "post_id": "gen018"
    },
    {
      "location_name": "Red Hook",
      "lat": 40.6744,
      "lng": -74.0089,
      "emotion": "peace",
      "intensity": 0.75,
      "text": "Red Hook waterfront is so peaceful. Feels like you're not in NYC",
      "reasoning": "Escape feeling",
      "timestamp": "2025-11-06T15:00:00",
      "subreddit": "Brooklyn",
      "post_id": "gen019"
    },
    {
      "location_name": "Upper East Side",
      "lat": 40.7736,
      "lng": -73.9566,
      "emotion": "peace",
      "intensity": 0.7,
      "text": "Museum Mile is quiet today. Finally can enjoy the Met without crowds",
      "reasoning": "Cultural experience",
      "timestamp": "2025-11-06T13:00:00",
      "subreddit": "nyc",
      "post_id": "gen020"
    },
    {
      "location_name": "Midtown",
      "lat": 40.7549,
      "lng": -73.984,
      "emotion": "anxiety",
      "intensity": 0.9,
      "text": "Penn Station during rush hour should be classified as psychological warfare",
      "reasoning": "Extreme commute stress",
      "timestamp": "2025-11-06T18:00:00",
      "subreddit": "nyc",
      "post_id": "gen021"
    },
    {
      "location_name": "Hell's Kitchen",
      "lat": 40.7638,
      "lng": -73.9918,
      "emotion": "joy",
      "intensity": 0.8,
      "text": "Restaurant Row never disappoints. Best Italian food outside of Italy",
      "reasoning": "Dining satisfaction",
      "timestamp": "2025-11-06T20:00:00",
      "subreddit": "nyc",
      "post_id": "gen022"
    }
  ],
  "2025-11-05": [
    {
      "location_name": "Bryant Park",
      "lat": 40.7536,
      "lng": -73.9832,
      "emotion": "joy",
      "intensity": 0.9,
      "text": "Hot chocolate powered Zamboni @Bryant Park",
      "reasoning": "Festive atmosphere",
      "timestamp": "2025-11-05T17:39:55",
      "subreddit": "nyc",
      "post_id": "1ophpel"
    },
    {
      "location_name": "Brooklyn",
      "lat": 40.7061,
      "lng": -73.9969,
      "emotion": "joy",
      "intensity": 1.0,
      "text": "Aldi DT Brooklyn is finally open!",
      "reasoning": "Store opening excitement",
      "timestamp": "2025-11-05T23:20:42",
      "subreddit": "Brooklyn",
      "post_id": "1oppbff"
    },
    {
      "location_name": "Brooklyn Bridge",
      "lat": 40.7061,
      "lng": -73.9969,
      "emotion": "sadness",
      "intensity": 0.8,
      "text": "License plate hiders everywhere. This city is falling apart",
      "reasoning": "Civic frustration",
      "timestamp": "2025-11-05T21:17:06",
      "subreddit": "Brooklyn",
      "post_id": "1opmq6i"
    },
    {
      "location_name": "Prospect Park",
      "lat": 40.6602,
      "lng": -73.9690,
      "emotion": "peace",
      "intensity": 0.9,
      "text": "Morning jog around Prospect Park. Fall foliage is absolutely stunning",
      "reasoning": "Nature beauty",
      "timestamp": "2025-11-05T07:00:00",
      "subreddit": "Brooklyn",
      "post_id": "gen023"
    },
    {
      "location_name": "Coney Island",
      "lat": 40.5755,
      "lng": -73.9707,
      "emotion": "peace",
      "intensity": 0.7,
      "text": "Off-season Coney Island hits different. Peaceful boardwalk walks",
      "reasoning": "Quiet atmosphere",
      "timestamp": "2025-11-05T14:00:00",
      "subreddit": "Brooklyn",
      "post_id": "gen024"
    },
    {
      "location_name": "Long Island City",
      "lat": 40.7447,
      "lng": -73.9485,
      "emotion": "joy",
      "intensity": 0.8,
      "text": "Rooftop bars in LIC with Manhattan skyline views are unbeatable",
      "reasoning": "Social enjoyment",
      "timestamp": "2025-11-05T19:00:00",
      "subreddit": "Queens",
      "post_id": "gen025"
    },
    {
      "location_name": "Flushing",
      "lat": 40.7672,
      "lng": -73.8335,
      "emotion": "joy",
      "intensity": 0.9,
      "text": "Authentic Chinese food in Flushing is better than anything in Manhattan",
      "reasoning": "Food discovery",
      "timestamp": "2025-11-05T18:30:00",
      "subreddit": "Queens",
      "post_id": "gen026"
    },
    {
      "location_name": "Corona",
      "lat": 40.7464,
      "lng": -73.8614,
      "emotion": "joy",
      "intensity": 0.85,
      "text": "Street food in Corona is incredible. Best tacos in NYC",
      "reasoning": "Food satisfaction",
      "timestamp": "2025-11-05T13:00:00",
      "subreddit": "Queens",
      "post_id": "gen027"
    },
    {
      "location_name": "Jackson Heights",
      "lat": 40.7557,
      "lng": -73.8831,
      "emotion": "joy",
      "intensity": 0.8,
      "text": "Jackson Heights diversity is what makes NYC special. Love this neighborhood",
      "reasoning": "Cultural appreciation",
      "timestamp": "2025-11-05T12:00:00",
      "subreddit": "Queens",
      "post_id": "gen028"
    },
    {
      "location_name": "Staten Island Ferry",
      "lat": 40.6436,
      "lng": -74.0733,
      "emotion": "peace",
      "intensity": 0.8,
      "text": "Free ferry ride with Statue of Liberty views. Best deal in NYC",
      "reasoning": "Scenic experience",
      "timestamp": "2025-11-05T16:00:00",
      "subreddit": "nyc",
      "post_id": "gen029"
    },
    {
      "location_name": "Meatpacking District",
      "lat": 40.7408,
      "lng": -74.0060,
      "emotion": "joy",
      "intensity": 0.85,
      "text": "High Line walk in the afternoon sun. Perfect NYC moment",
      "reasoning": "Urban park enjoyment",
      "timestamp": "2025-11-05T15:00:00",
      "subreddit": "nyc",
      "post_id": "gen030"
    },
    {
      "location_name": "Tribeca",
      "lat": 40.7163,
      "lng": -74.0086,
      "emotion": "peace",
      "intensity": 0.7,
      "text": "Tribeca on a Tuesday morning is eerily quiet. Love it",
      "reasoning": "Peaceful neighborhood",
      "timestamp": "2025-11-05T10:00:00",
      "subreddit": "nyc",
      "post_id": "gen031"
    },
    {
      "location_name": "East Harlem",
      "lat": 40.7957,
      "lng": -73.9389,
      "emotion": "joy",
      "intensity": 0.8,
      "text": "Found an amazing Puerto Rican spot in Spanish Harlem. Mofongo was perfect",
      "reasoning": "Food discovery",
      "timestamp": "2025-11-05T19:30:00",
      "subreddit": "nyc",
      "post_id": "gen032"
    },
    {
      "location_name": "Washington Heights",
      "lat": 40.8508,
      "lng": -73.9360,
      "emotion": "peace",
      "intensity": 0.75,
      "text": "Fort Tryon Park is the most underrated spot in Manhattan",
      "reasoning": "Hidden gem appreciation",
      "timestamp": "2025-11-05T11:00:00",
      "subreddit": "nyc",
      "post_id": "gen033"
    },
    {
      "location_name": "Inwood",
      "lat": 40.8677,
      "lng": -73.9212,
      "emotion": "peace",
      "intensity": 0.8,
      "text": "Inwood Hill Park feels like upstate NY. Can't believe this is still Manhattan",
      "reasoning": "Nature escape",
      "timestamp": "2025-11-05T08:30:00",
      "subreddit": "nyc",
      "post_id": "gen034"
    }
  ],
  "2025-11-04": [
    {
      "location_name": "Harlem",
      "lat": 40.8116,
      "lng": -73.9465,
      "emotion": "neutral",
      "intensity": 0.5,
      "text": "Moving to Harlem next week. Wondering about parking",
      "reasoning": "Practical concern",
      "timestamp": "2025-11-04T22:43:45",
      "subreddit": "Manhattan",
      "post_id": "1ooslrj"
    },
    {
      "location_name": "Chelsea",
      "lat": 40.7465,
      "lng": -74.0014,
      "emotion": "joy",
      "intensity": 0.8,
      "text": "Looking for election watch party in Chelsea!",
      "reasoning": "Social excitement",
      "timestamp": "2025-11-04T19:28:56",
      "subreddit": "Manhattan",
      "post_id": "1ooodoz"
    },
    {
      "location_name": "East Village",
      "lat": 40.7265,
      "lng": -73.9815,
      "emotion": "anxiety",
      "intensity": 0.8,
      "text": "MISSING Orange Cat near E 4th & Ave A",
      "reasoning": "Pet worry",
      "timestamp": "2025-11-04T13:41:44",
      "subreddit": "Manhattan",
      "post_id": "1oofgjr"
    },
    {
      "location_name": "Rockefeller Center",
      "lat": 40.7587,
      "lng": -73.9787,
      "emotion": "joy",
      "intensity": 0.9,
      "text": "Ice skating at Rockefeller Center! Living the NYC dream",
      "reasoning": "Iconic activity",
      "timestamp": "2025-11-04T18:00:00",
      "subreddit": "nyc",
      "post_id": "gen035"
    },
    {
      "location_name": "NoHo",
      "lat": 40.7277,
      "lng": -73.9935,
      "emotion": "joy",
      "intensity": 0.8,
      "text": "Found an underground jazz club in NoHo. This city never stops surprising me",
      "reasoning": "Discovery joy",
      "timestamp": "2025-11-04T22:00:00",
      "subreddit": "nyc",
      "post_id": "gen036"
    },
    {
      "location_name": "Battery Park",
      "lat": 40.7033,
      "lng": -74.0170,
      "emotion": "peace",
      "intensity": 0.75,
      "text": "Sunset at Battery Park overlooking the harbor. Peaceful end to a busy day",
      "reasoning": "Scenic relaxation",
      "timestamp": "2025-11-04T17:30:00",
      "subreddit": "nyc",
      "post_id": "gen037"
    },
    {
      "location_name": "Crown Heights",
      "lat": 40.6688,
      "lng": -73.9429,
      "emotion": "joy",
      "intensity": 0.85,
      "text": "Caribbean carnival vibes in Crown Heights today. Love the culture here",
      "reasoning": "Cultural celebration",
      "timestamp": "2025-11-04T14:00:00",
      "subreddit": "Brooklyn",
      "post_id": "gen038"
    },
    {
      "location_name": "Bed-Stuy",
      "lat": 40.6872,
      "lng": -73.9418,
      "emotion": "joy",
      "intensity": 0.8,
      "text": "Brownstone architecture in Bed-Stuy is gorgeous. House goals",
      "reasoning": "Aesthetic appreciation",
      "timestamp": "2025-11-04T12:00:00",
      "subreddit": "Brooklyn",
      "post_id": "gen039"
    },
    {
      "location_name": "Fort Greene",
      "lat": 40.6893,
      "lng": -73.9742,
      "emotion": "peace",
      "intensity": 0.8,
      "text": "Fort Greene Park on a weekday morning. So peaceful",
      "reasoning": "Park tranquility",
      "timestamp": "2025-11-04T09:00:00",
      "subreddit": "Brooklyn",
      "post_id": "gen040"
    },
    {
      "location_name": "Sunset Park",
      "lat": 40.6515,
      "lng": -74.0104,
      "emotion": "joy",
      "intensity": 0.9,
      "text": "Sunset Park lives up to its name. Best sunset view in Brooklyn",
      "reasoning": "Scenic beauty",
      "timestamp": "2025-11-04T17:00:00",
      "subreddit": "Brooklyn",
      "post_id": "gen041"
    }
  ],
  "2025-11-03": [
    {
      "location_name": "Chelsea",
      "lat": 40.7465,
      "lng": -74.0014,
      "emotion": "joy",
      "intensity": 0.9,
      "text": "Stand Up Comedy Show at NY Comedy Festival!",
      "reasoning": "Event excitement",
      "timestamp": "2025-11-03T14:31:52",
      "subreddit": "Manhattan",
      "post_id": "1onlgu1"
    },
    {
      "location_name": "West Village",
      "lat": 40.7358,
      "lng": -74.0027,
      "emotion": "neutral",
      "intensity": 0.5,
      "text": "Famous narrow house listed for $4.195 million",
      "reasoning": "Real estate news",
      "timestamp": "2025-11-03T12:06:20",
      "subreddit": "Manhattan",
      "post_id": "1onhevp"
    },
    {
      "location_name": "Brooklyn Heights",
      "lat": 40.6958,
      "lng": -73.9936,
      "emotion": "peace",
      "intensity": 0.85,
      "text": "Brooklyn Heights Promenade at golden hour. Stunning Manhattan views",
      "reasoning": "Scenic appreciation",
      "timestamp": "2025-11-03T17:00:00",
      "subreddit": "Brooklyn",
      "post_id": "gen042"
    },
    {
      "location_name": "Little Italy",
      "lat": 40.7194,
      "lng": -73.9977,
      "emotion": "joy",
      "intensity": 0.8,
      "text": "Cannoli crawl in Little Italy. Every spot is better than the last",
      "reasoning": "Food tour joy",
      "timestamp": "2025-11-03T15:00:00",
      "subreddit": "nyc",
      "post_id": "gen043"
    },
    {
      "location_name": "Gramercy",
      "lat": 40.7368,
      "lng": -73.9845,
      "emotion": "peace",
      "intensity": 0.7,
      "text": "Gramercy Park area is like a hidden oasis in Manhattan",
      "reasoning": "Neighborhood charm",
      "timestamp": "2025-11-03T11:00:00",
      "subreddit": "nyc",
      "post_id": "gen044"
    },
    {
      "location_name": "Gowanus",
      "lat": 40.6736,
      "lng": -73.9958,
      "emotion": "joy",
      "intensity": 0.8,
      "text": "Brewery hopping in Gowanus. This industrial area has the best beer scene",
      "reasoning": "Leisure activity",
      "timestamp": "2025-11-03T20:00:00",
      "subreddit": "Brooklyn",
      "post_id": "gen045"
    },
    {
      "location_name": "Cobble Hill",
      "lat": 40.6881,
      "lng": -73.9963,
      "emotion": "peace",
      "intensity": 0.75,
      "text": "Walking the tree-lined streets of Cobble Hill. Such a charming neighborhood",
      "reasoning": "Aesthetic pleasure",
      "timestamp": "2025-11-03T10:00:00",
      "subreddit": "Brooklyn",
      "post_id": "gen046"
    },
    {
      "location_name": "Ridgewood",
      "lat": 40.7006,
      "lng": -73.9057,
      "emotion": "joy",
      "intensity": 0.8,
      "text": "Bar scene in Ridgewood is popping off. Love this neighborhood energy",
      "reasoning": "Nightlife enjoyment",
      "timestamp": "2025-11-03T23:00:00",
      "subreddit": "Queens",
      "post_id": "gen047"
    }
  ],
  "2025-11-02": [
    {
      "location_name": "Times Square",
      "lat": 40.758,
      "lng": -73.9855,
      "emotion": "anxiety",
      "intensity": 0.85,
      "text": "Times Square on a Saturday night is sensory overload. Too much",
      "reasoning": "Overwhelming crowds",
      "timestamp": "2025-11-02T21:00:00",
      "subreddit": "nyc",
      "post_id": "gen048"
    },
    {
      "location_name": "Museum Mile",
      "lat": 40.7794,
      "lng": -73.9632,
      "emotion": "joy",
      "intensity": 0.9,
      "text": "Spent the entire day museum hopping. Guggenheim is incredible",
      "reasoning": "Cultural enrichment",
      "timestamp": "2025-11-02T16:00:00",
      "subreddit": "nyc",
      "post_id": "gen049"
    },
    {
      "location_name": "Greenpoint",
      "lat": 40.7305,
      "lng": -73.9510,
      "emotion": "joy",
      "intensity": 0.8,
      "text": "Brunch in Greenpoint was amazing. Polish food and coffee shops everywhere",
      "reasoning": "Food satisfaction",
      "timestamp": "2025-11-02T11:00:00",
      "subreddit": "Brooklyn",
      "post_id": "gen050"
    },
    {
      "location_name": "Madison Square Park",
      "lat": 40.7425,
      "lng": -73.9881,
      "emotion": "peace",
      "intensity": 0.75,
      "text": "Reading in Madison Square Park. Perfect fall afternoon",
      "reasoning": "Relaxation",
      "timestamp": "2025-11-02T14:00:00",
      "subreddit": "nyc",
      "post_id": "gen051"
    },
    {
      "location_name": "Brooklyn Navy Yard",
      "lat": 40.7003,
      "lng": -73.9729,
      "emotion": "neutral",
      "intensity": 0.5,
      "text": "Took a tour of Brooklyn Navy Yard. Interesting industrial history",
      "reasoning": "Educational interest",
      "timestamp": "2025-11-02T13:00:00",
      "subreddit": "Brooklyn",
      "post_id": "gen052"
    },
    {
      "location_name": "Morningside Heights",
      "lat": 40.8105,
      "lng": -73.9626,
      "emotion": "peace",
      "intensity": 0.8,
      "text": "Columbia campus in fall is stunning. Love this neighborhood vibe",
      "reasoning": "Campus beauty",
      "timestamp": "2025-11-02T15:00:00",
      "subreddit": "nyc",
      "post_id": "gen053"
    }
  ],
  "2025-11-01": [
    {
      "location_name": "Central Park",
      "lat": 40.7829,
      "lng": -73.9654,
      "emotion": "joy",
      "intensity": 0.9,
      "text": "Halloween in Central Park was magical. So many creative costumes",
      "reasoning": "Holiday celebration",
      "timestamp": "2025-11-01T18:00:00",
      "subreddit": "nyc",
      "post_id": "gen054"
    },
    {
      "location_name": "Village Halloween Parade",
      "lat": 40.7336,
      "lng": -74.0027,
      "emotion": "joy",
      "intensity": 1.0,
      "text": "Village Halloween Parade is everything! Best night of the year in NYC",
      "reasoning": "Festival peak",
      "timestamp": "2025-11-01T20:00:00",
      "subreddit": "nyc",
      "post_id": "gen055"
    },
    {
      "location_name": "Tompkins Square Park",
      "lat": 40.7264,
      "lng": -73.9815,
      "emotion": "joy",
      "intensity": 0.85,
      "text": "Dog parade at Tompkins Square Park. Cutest thing ever",
      "reasoning": "Wholesome event",
      "timestamp": "2025-11-01T14:00:00",
      "subreddit": "nyc",
      "post_id": "gen056"
    },
    {
      "location_name": "Brooklyn Botanic Garden",
      "lat": 40.6694,
      "lng": -73.9636,
      "emotion": "peace",
      "intensity": 0.9,
      "text": "Fall colors at Brooklyn Botanic Garden are peak. So serene",
      "reasoning": "Nature beauty",
      "timestamp": "2025-11-01T12:00:00",
      "subreddit": "Brooklyn",
      "post_id": "gen057"
    },
    {
      "location_name": "Soho",
      "lat": 40.7233,
      "lng": -74.0030,
      "emotion": "anxiety",
      "intensity": 0.7,
      "text": "Halloween shopping in Soho was chaos. Lines everywhere",
      "reasoning": "Retail stress",
      "timestamp": "2025-11-01T16:00:00",
      "subreddit": "nyc",
      "post_id": "gen058"
    }
  ],
  "2025-10-31": [
    {
      "location_name": "Times Square",
      "lat": 40.758,
      "lng": -73.9855,
      "emotion": "joy",
      "intensity": 0.9,
      "text": "Visited Times Square last year. Planning February 2026 birthday trip!",
      "reasoning": "Travel excitement",
      "timestamp": "2025-10-31T21:09:28",
      "subreddit": "Manhattan",
      "post_id": "1olbglk"
    },
    {
      "location_name": "Lower Manhattan",
      "lat": 40.7081,
      "lng": -74.0132,
      "emotion": "joy",
      "intensity": 0.95,
      "text": "Halloween in NYC hits different. The energy is unreal",
      "reasoning": "Holiday atmosphere",
      "timestamp": "2025-10-31T19:00:00",
      "subreddit": "nyc",
      "post_id": "gen059"
    },
    {
      "location_name": "East Village",
      "lat": 40.7265,
      "lng": -73.9815,
      "emotion": "joy",
      "intensity": 0.9,
      "text": "Bar crawl in East Village on Halloween. Best costumes I've ever seen",
      "reasoning": "Halloween fun",
      "timestamp": "2025-10-31T22:00:00",
      "subreddit": "nyc",
      "post_id": "gen060"
    }
  ],
  "2025-10-30": [
    {
      "location_name": "Washington Square Park",
      "lat": 40.7308,
      "lng": -73.9973,
      "emotion": "anxiety",
      "intensity": 0.8,
      "text": "19 charged with flooding Washington Square Park with drugs",
      "reasoning": "Safety concern",
      "timestamp": "2025-10-30T17:15:37",
      "subreddit": "Manhattan",
      "post_id": "1okby82"
    },
    {
      "location_name": "East Side",
      "lat": 40.7736,
      "lng": -73.9566,
      "emotion": "joy",
      "intensity": 0.8,
      "text": "Parking lot becoming a public park. Great news for the neighborhood",
      "reasoning": "Community improvement",
      "timestamp": "2025-10-30T08:16:35",
      "subreddit": "Manhattan",
      "post_id": "1ojy2ic"
    },
    {
      "location_name": "Brooklyn Bridge Park",
      "lat": 40.7024,
      "lng": -73.9960,
      "emotion": "peace",
      "intensity": 0.85,
      "text": "Sunset at Brooklyn Bridge Park. The view never gets old",
      "reasoning": "Scenic moment",
      "timestamp": "2025-10-30T17:30:00",
      "subreddit": "Brooklyn",
      "post_id": "gen061"
    }
  ]
}